[{"station":"Central/Western","lat":22.284792,"lng":114.14413907799911},{"station":"Southern","lat":22.2479312,"lng":114.1601149},{"station":"Eastern","lat":22.2830774,"lng":114.21900057191323},{"station":"Kwun Tong","lat":22.3098052,"lng":114.2315367557473},{"station":"Sham Shui Po","lat":22.330405213400752,"lng":114.15939550471612},{"station":"Kwai Chung","lat":22.356942949999997,"lng":114.1293283974214},{"station":"Tsuen Wan","lat":22.371890560773316,"lng":114.11512300841532},{"station":"Tseung Kwan O","lat":22.31754838890652,"lng":114.2602613427978},{"station":"Yuen Long","lat":22.4449384,"lng":114.0228013},{"station":"Tuen Mun","lat":22.39139578334337,"lng":113.97736173910037},{"station":"Tung Chung","lat":22.289109238190928,"lng":113.94412689677011},{"station":"Tai Po","lat":22.45125422341408,"lng":114.16439708937546},{"station":"Sha Tin","lat":22.376768772361523,"lng":114.18537610046992},{"station":"North","lat":22.496930300000002,"lng":114.12833606569419},{"station":"Tap Mun","lat":22.471330169476424,"lng":114.36096390768151},{"station":"Causeway Bay","lat":22.28050141982767,"lng":114.18588316608526},{"station":"Central","lat":22.28185169591833,"lng":114.15807261990376},{"station":"Mong Kok","lat":22.322578835466118,"lng":114.16836839255906}]
